[
 {
"ward": "京都市北区",
"name": "ゆう薬局在宅支援センター",
"address": "京都市北区小山北大野町15番地 ロジュマン新町1階",
"type": "抗原定性検査",
"smartphone": "不要",
"days": "月～木",
"hours": "10:00～13:00",
"note": "検査キット入荷待ちのため現在受付できません。  ・金～日、祝日は検査は実施していません。 ・受検希望者は事前にご連絡ください TEL:075-496-8516"
 },
 {
"ward": "京都市北区",
"name": "にしたんクリニック 上賀茂ボウル",
"address": "京都市北区上賀茂西河原町1-1",
"type": "PCR検査等",
"smartphone": "要",
"days": "毎日",
"hours": "10:00～20:00",
"note": ""
 },
 {
"ward": "京都市北区",
"name": "薬局ダックス京都衣笠店",
"address": "京都市北区衣笠天神森町28番地2",
"type": "PCR検査等 抗原定性検査",
"smartphone": "要",
"days": "月～土",
"hours": "10:00～18:00 (PCR検査は10時～12時） 土は10:00～13:00",
"note": "・日、祝は休み ・土曜日のPCR検査は実施していません。 ・店頭予約のみ受付　(電話での予約は受付しておりません。）"
 },
 {
"ward": "京都市北区",
"name": "薬局ダックス京都北山店",
"address": "京都市北区紫竹栗栖町37番地",
"type": "PCR検査等 抗原定性検査",
"smartphone": "要",
"days": "月～土",
"hours": "10:00～18:00 (PCR検査は10時～12時）土は10:00～17:00",
"note": "・日、祝は休み ・土曜日のPCR検査は実施していません。 ・店頭予約のみ受付　(電話での予約は受付しておりません。）"
 },
 {
"ward": "京都市北区",
"name": "薬局ダックス京都紫野店",
"address": "京都市北区紫野雲林院町38番地",
"type": "PCR検査等 抗原定性検査",
"smartphone": "要",
"days": "月～金",
"hours": "10:00～18:00 (PCR検査は10時～12時）（14時～15時は休み）",
"note": "・土、日、祝は休み ・店頭予約のみ受付　(電話での予約は受付しておりません。）"
 },
 {
"ward": "京都市北区",
"name": "薬局ダックス京都大宮紫竹店",
"address": "京都市北区大宮南椿原町36番地1",
"type": "PCR検査等 抗原定性検査",
"smartphone": "要",
"days": "月～金",
"hours": "10:00～18:00 (PCR検査は10時～12時）（14時～15時は休み）",
"note": "・土、日、祝は休み ・店頭予約のみ受付　(電話での予約は受付しておりません。）"
 },
 {
"ward": "京都市上京区",
"name": "ウエルシア薬局京都智恵光院店",
"address": "京都市上京区天秤丸町194",
"type": "PCR検査 抗原定性検査",
"smartphone": "要 （抗原定性検査は不要）",
"days": "月～金",
"hours": "10:00～17:00 （13:00～15:00は休み）",
"note": "・土、日、祝日は休み ・PCR検査は午前のみ、15時以降は抗原定性検査のみ ・ウエルシア薬局ホームページhttps://www.welcia-yakkyoku.co.jp/より 検査の予約が可能。店頭での受付も可能。"
 },
 {
"ward": "京都市上京区",
"name": "薬局ダックス上京堀川今出川店",
"address": "京都市上京区堀川通今出川上ル北舟橋町854番地",
"type": "PCR検査等 抗原定性検査",
"smartphone": "要",
"days": "月～金",
"hours": "10:00～18:00 (PCR検査は10時～12時）（14時～15時は休み）",
"note": "・土、日、祝は休み ・店頭予約のみ受付　(電話での予約は受付しておりません。）"
 },
 {
"ward": "京都市上京区",
"name": "薬局ダックス上京智恵光院店",
"address": "京都市上京区中立売通裏門東入多門町445番地12",
"type": "PCR検査等 抗原定性検査",
"smartphone": "要",
"days": "月～土",
"hours": "10:00～18:00 (PCR検査は10時～12時）（14時～15時は休み）",
"note": "・日、祝は休み ・土曜日のPCR検査は実施していません。 ・店頭予約のみ受付　(電話での予約は受付しておりません。）"
 },
 {
"ward": "京都市左京区",
"name": "株式会社フジタ薬局　高野店",
"address": "京都市左京区高野西開町55-2",
"type": "抗原定性検査",
"smartphone": "不要",
"days": "月～土",
"hours": "(月～金)9:00～18:00 (土)9:00～13:00",
"note": "祝日は休み 店舗にお問い合わせください。 "
 },
 {
"ward": "京都市左京区",
"name": "医療法人悠仁会　百万遍クリニック　",
"address": "京都市左京区田中門前町100番地-5 京都パストゥール研究所ビル1F",
"type": "PCR検査等",
"smartphone": "不要",
"days": "月～土",
"hours": "9:00～12:00、 13:00～15:00",
"note": "祝日は休み 受検希望者は事前にお問合せ下さい。 TEL：075-791-8205"
 },
 {
"ward": "京都市左京区",
"name": "たんぽぽ薬局聖護院店",
"address": "京都市左京区聖護院山王町36番地1",
"type": "抗原定性検査",
"smartphone": "不要",
"days": "月～金",
"hours": "9:00～11:00",
"note": "検査キット入荷待ちのため現在受付できません。  ・土・日・祝日は検査は実施していません。 ・お問い合わせは平日（月～金）９時～18時にお願いします。 ・受検希望者は事前にお問い合わせください。 TEL:075-751-5801"
 },
 {
"ward": "京都市左京区",
"name": "すこやか薬局",
"address": "京都市左京区田中飛鳥井町53番地3",
"type": "抗原定性検査",
"smartphone": "不要",
"days": "月～金",
"hours": "9:00～14:30",
"note": "・土・日・祝日は検査は実施していません。"
 },
 {
"ward": "京都市左京区",
"name": "いわくら駅前ゆう薬局",
"address": "京都市左京区岩倉忠在地町819番地1 ドルフ岩倉駅前医療モール1階",
"type": "抗原定性検査",
"smartphone": "不要",
"days": "月～金",
"hours": "14:00～17:00",
"note": "検査キット入荷待ちのため 現在受付できません。 ・土、日、祝日は検査は実施していません。 ・受検希望者は事前にご連絡ください。 TEL:075-707-1155 "
 },
 {
"ward": "京都市左京区",
"name": "にしたんクリニック　ハートレンタカー出町柳店",
"address": "京都市左京区田中開田町27",
"type": "PCR検査",
"smartphone": "要",
"days": "毎日",
"hours": "10:00～20:00",
"note": ""
 },
 {
"ward": "京都市左京区",
"name": "薬局ダックス左京宝ヶ池店",
"address": "京都市左京区岩倉中大鷺町9番地1",
"type": "PCR検査等 抗原定性検査",
"smartphone": "要",
"days": "月～金",
"hours": "10:00～18:00 PCR検査は10:00～15:00",
"note": "・日、祝は休み ・土曜日は検査は実施していません。 ・店頭予約のみ受付　(電話での予約は受付しておりません。）"
 },
 {
"ward": "京都市左京区",
"name": "薬局ダックス左京下鴨店",
"address": "京都市左京区下鴨東本町10番地1",
"type": "PCR検査等 抗原定性検査",
"smartphone": "要",
"days": "月～金",
"hours": "10:00～18:00 (PCR検査は10時～12時）（13時～14時は休み）",
"note": "・土、日、祝は休み ・店頭予約のみ受付　(電話での予約は受付しておりません。）"
 },
 {
"ward": "京都市左京区",
"name": "薬局ダックス左京北白川店",
"address": "京都市左京区北白川上終町8番地1",
"type": "PCR検査等 抗原定性検査",
"smartphone": "要",
"days": "月～金",
"hours": "10:00～18:00 (PCR検査は10時～12時）（14時～15時は休み）",
"note": "・土、日、祝は休み ・店頭予約のみ受付　(電話での予約は受付しておりません。）"
 },
 {
"ward": "京都市中京区",
"name": "木下グループ新型コロナPCR検査センター京都店",
"address": "京都市中京区新京極通錦小路下る中之町542番地2",
"type": "PCR検査 抗原定性検査",
"smartphone": "要",
"days": "月～日",
"hours": "11:00～18:00",
"note": "無休 木下グループPCR検査センターHPより事前登録が必要。"
 },
 {
"ward": "京都市中京区",
"name": "薬局ダックス京都御池店",
"address": "京都市中京区御池通り新町角神明町68番地",
"type": "PCR検査等 抗原定性検査",
"smartphone": "要",
"days": "月～金",
"hours": "PCR検査は　10:00～12:00　抗原検査は　10:00～16:00 （13時～14時は休み）",
"note": "・土、日、祝は休み ・店頭予約のみ受付　(電話での予約は受付しておりません。）"
 },
 {
"ward": "京都市中京区",
"name": "薬局ダックス京都二条店",
"address": "京都市中京区西ノ京星池町221番地",
"type": "PCR検査等 抗原定性検査",
"smartphone": "要",
"days": "月・火・木・金",
"hours": "13:00～14:00　15:00～16:00 ",
"note": "・日、祝は休み ・水・土曜日は検査は実施していません。 "
 },
 {
"ward": "京都市東山区",
"name": "にしたんクリニック ＭＫタクシー祇園北のりば",
"address": "京都市東山区新橋通大和大路東入林下町439-3",
"type": "PCR検査等",
"smartphone": "要",
"days": "毎日",
"hours": "13:00～21:00（最終受付）",
"note": ""
 },
 {
"ward": "京都市下京区",
"name": "松井薬局　京都駅前店",
"address": "京都市下京区東洞院通塩小路下ル東塩小路町 547番地の2",
"type": "抗原定性検査",
"smartphone": "不要",
"days": "土、日、祝",
"hours": "土：18:00～23:00 日、祝：11:00～21:00",
"note": ""
 },
 {
"ward": "京都市下京区",
"name": "松井薬局　本店",
"address": "京都市下京区七条通河原町西入材木町478番地",
"type": "抗原定性検査",
"smartphone": "不要",
"days": "月～土",
"hours": "10:00～20:00 祝日は12:00～19:00",
"note": ""
 },
 {
"ward": "京都市下京区",
"name": "医療法人仏光会　小西仏光寺診療所",
"address": "京都市下京区仏光寺通柳馬場西入東前町398",
"type": "抗原定性検査",
"smartphone": "不要",
"days": "月～金",
"hours": "9:00～12:00、 17:30～18:30 水・土は午前のみ",
"note": "・土、日、祝日は検査は実施していません。"
 },
 {
"ward": "京都市下京区",
"name": "七条ゆう薬局",
"address": "京都市下京区西七条東八反田町33番地 パデシオン京都七条ミッドパーク1階　",
"type": "抗原定性検査",
"smartphone": "不要",
"days": "月～金",
"hours": "13:30～16:30",
"note": "検査キット入荷待ちのため 現在受付できません。 ・土、日、祝日は検査は実施していません。 ・受検希望者は事前にご連絡ください。 TEL:075-325-0010"
 },
 {
"ward": "京都市下京区",
"name": "にしたんクリニック 四条河原町MK事務所",
"address": "京都市下京区四条通河原町東入真町68番地 京都河原町ガーデン会議室",
"type": "PCR検査等",
"smartphone": "要",
"days": "毎日",
"hours": "10:00～20:45（最終受付）",
"note": ""
 },
 {
"ward": "京都市下京区",
"name": "薬局ダックス下京烏丸店",
"address": "京都市下京区烏丸通高辻上ル大政所町680番地1 ",
"type": "PCR検査等 抗原定性検査",
"smartphone": "要",
"days": "月～金",
"hours": "PCR検査は　10:00～12:00　抗原検査は　13:00～16:00 （14時～15時は休み）",
"note": "・土、日、祝は休み ・店頭予約のみ受付　(電話での予約は受付しておりません。）"
 },
 {
"ward": "京都市下京区",
"name": "薬局ダックス下京五条店",
"address": "京都市下京区中堂寺北町70番地",
"type": "PCR検査等 抗原定性検査",
"smartphone": "要",
"days": "月～土",
"hours": "10:00～18:00 (PCR検査は10時～12時）土は10:00～12:30",
"note": "・日、祝は休み ・土曜日のPCR検査は実施していません。 ・店頭予約のみ受付　(電話での予約は受付しておりません。）"
 },
 {
"ward": "京都市下京区",
"name": "薬局ダックス下京西七条店",
"address": "京都市下京区西七条北月読町70番地",
"type": "PCR検査等 抗原定性検査",
"smartphone": "要",
"days": "月・火・木・金",
"hours": "PCR検査は　10:00～12:00　抗原検査は　13:00～16:00",
"note": "・水、土、日、祝は検査は実施していません。 ・店頭予約のみ受付　(電話での予約は受付しておりません。）"
 },
 {
"ward": "京都市南区",
"name": "クラフト株式会社 さくら薬局 京都十条店",
"address": "京都市南区上鳥羽唐戸町7-3",
"type": "抗原定性検査",
"smartphone": "不要",
"days": "月～金",
"hours": "14:00～17:00",
"note": "検査キット入荷待ちのため現在受付できません。  祝日は休み"
 },
 {
"ward": "京都市南区",
"name": "ACｸﾘﾆｯｸPCR検査ｾﾝﾀｰ　京都店",
"address": "京都市南区西九条横町35番　1階",
"type": "PCR検査等",
"smartphone": "要",
"days": "月～日",
"hours": "9:00～16:45",
"note": ""
 },
 {
"ward": "京都市南区",
"name": "にしたんクリニック 八条口ＭＫタクシー乗り場第二駐車場",
"address": "京都市南区東九条室町58-16",
"type": "PCR検査等",
"smartphone": "要",
"days": "毎日",
"hours": "10:00～20:45（最終受付）",
"note": ""
 },
 {
"ward": "京都市南区",
"name": "クスリのアオキ久世南薬局",
"address": "京都市南区久世東土川町78番地",
"type": "PCR検査等 抗原定性検査",
"smartphone": "要 （抗原定性検査は不要）",
"days": "毎日",
"hours": "9:00～22:00",
"note": ""
 },
 {
"ward": "京都市南区",
"name": "クスリのアオキ久世築山薬局",
"address": "京都市南区久世築山町103番地1",
"type": "PCR検査等 抗原定性検査",
"smartphone": "要 （抗原定性検査は不要）",
"days": "毎日",
"hours": "9:00～22:00",
"note": ""
 },
 {
"ward": "京都市南区",
"name": "にしたんクリニック　ＭK十条",
"address": "京都市南区上鳥羽北花名町1-1　MK(株)十条地下1階",
"type": "PCR検査",
"smartphone": "要",
"days": "毎日",
"hours": "10:00～20:00",
"note": ""
 },
 {
"ward": "京都市南区",
"name": "薬局ダックスイオンモール京都桂川店",
"address": "京都市南区久世高田町376番地１",
"type": "PCR検査等 抗原定性検査",
"smartphone": "要",
"days": "月～日、祝",
"hours": "10:00～18:00 (PCR検査は10時～12時)",
"note": "・土､日､祝のPCR検査は実施していません ・店頭予約のみ受付　(電話での予約は受付しておりません。）"
 },
 {
"ward": "京都市南区",
"name": "薬局ダックス京都吉祥院前田店",
"address": "京都市南区吉祥院前田町15番地",
"type": "PCR検査等 抗原定性検査",
"smartphone": "要",
"days": "月～金",
"hours": "10:00～18:00 (PCR検査は10時～12時）（14時～15時は休み）",
"note": "・土、日、祝は休み ・店頭予約のみ受付　(電話での予約は受付しておりません。）"
 },
 {
"ward": "京都市右京区",
"name": "ウエルシア薬局右京西院月双店",
"address": "京都市右京区西院月双町22",
"type": "PCR検査 抗原定性検査",
"smartphone": "要 （抗原定性検査は不要）",
"days": "月～土",
"hours": "（月～金）10:00～18:00 （土）10:00～17:00 （いずれも13:00～15:00は休み）",
"note": "・日、祝日は休み ・PCR検査は月～金の午前のみ、月～金の15時以降と土曜（終日）は抗原定性検査のみ ・ウエルシア薬局ホームページhttps://www.welcia-yakkyoku.co.jp/より 検査の予約が可能。店頭での受付も可能。"
 },
 {
"ward": "京都市右京区",
"name": "薬局ダックス右京嵯峨店",
"address": "京都市右京区嵯峨新宮町6番地3",
"type": "PCR検査等 抗原定性検査",
"smartphone": "要",
"days": "月～金",
"hours": "PCR検査は　10:00～12:00　抗原検査は　10:00～12:00　15:00～18:00",
"note": "・土、日、祝は休み ・店頭予約のみ受付　(電話での予約は受付しておりません。）"
 },
 {
"ward": "京都市右京区",
"name": "薬局ダックス右京花屋町店",
"address": "京都市右京区西京極町ノ坪町3番地",
"type": "PCR検査等 抗原定性検査",
"smartphone": "要",
"days": "月～土",
"hours": "PCR検査は　10:00～12:00　抗原検査は　10:00～16:00 土は10:00～12:00",
"note": "・日、祝は休み ・土曜日のPCR検査は実施していません。 ・店頭予約のみ受付　(電話での予約は受付しておりません。）"
 },
 {
"ward": "京都市右京区",
"name": "薬局ダックス右京太秦店",
"address": "京都市右京区常盤東ノ町6番地",
"type": "PCR検査等 抗原定性検査",
"smartphone": "要",
"days": "月～土",
"hours": "10:00～18:00 (PCR検査は10時～12時）土は10:00～14:00",
"note": "・日、祝は休み ・土曜日のPCR検査は実施していません。 ・店頭予約のみ受付　(電話での予約は受付しておりません。）"
 },
 {
"ward": "京都市右京区",
"name": "薬局ダックス右京西院三蔵店",
"address": "京都市右京区西院三蔵町9番地 ",
"type": "PCR検査等 抗原定性検査",
"smartphone": "要",
"days": "月～金",
"hours": "10:00～18:00 (PCR検査は10時～12時）（13時～14時は休み）",
"note": "・土、日、祝は休み ・店頭予約のみ受付　(電話での予約は受付しておりません。）"
 },
 {
"ward": "京都市右京区",
"name": "薬局ダックス右京葛野八条店",
"address": "京都市右京区西京極芝ノ下町7番地",
"type": "PCR検査等 抗原定性検査",
"smartphone": "要",
"days": "月～金",
"hours": "10:00～18:00 (PCR検査は10時～12時)（14時～15時は休み）",
"note": "・土、日、祝は休み ・店頭予約のみ受付　(電話での予約は受付しておりません。）"
 },
 {
"ward": "京都市伏見区",
"name": "株式会社フジタ薬局",
"address": "京都市伏見区小栗栖南後藤町3-13",
"type": "抗原定性検査",
"smartphone": "不要",
"days": "月～土",
"hours": "(月～金)9:00～18:00 (土)9:00～15:00",
"note": "祝日は休み 店舗にお問い合わせください。"
 },
 {
"ward": "京都市伏見区",
"name": "株式会社フジタ薬局　石田店",
"address": "京都市伏見区石田森東町3-10",
"type": "抗原定性検査",
"smartphone": "不要",
"days": "月～土",
"hours": "(月～金)9:00～18:00 (土)9:00～15:00",
"note": "祝日は休み 店舗にお問い合わせください。 "
 },
 {
"ward": "京都市伏見区",
"name": "ウエルシア薬局伏見小栗栖店",
"address": "京都市伏見区小栗栖森本町6番地1",
"type": "PCR検査 抗原定性検査",
"smartphone": "要 （抗原定性検査は不要）",
"days": "月～土",
"hours": "（月～金）10:00～18:00 （土）10:00～17:00 （いずれも13:00～15:00は休み）",
"note": "・日、祝日は休み ・PCR検査は月～金の午前のみ、月～金の15時以降と土曜（終日）は抗原定性検査のみ ・ウエルシア薬局ホームページhttps://www.welcia-yakkyoku.co.jp/より 検査の予約が可能。店頭での受付も可能。"
 },
 {
"ward": "京都市伏見区",
"name": "クラフト株式会社 さくら薬局 京都伏見店",
"address": "京都市伏見区石田森東町30-1",
"type": "抗原定性検査",
"smartphone": "不要",
"days": "月～金",
"hours": "17:00～19:00",
"note": "検査キット入荷待ちのため現在受付できません。  祝日は休み"
 },
 {
"ward": "京都市伏見区",
"name": "ユタカ調剤薬局　桃山南店",
"address": "京都市伏見区桃山町養斎16-35",
"type": "抗原定性検査",
"smartphone": "不要",
"days": "月～金",
"hours": "12:00～17:00",
"note": "・土・日・祝は休み ・予約制のため、受検希望者は事前にご連絡ください。 TEL:調剤専用電話075-604-3880"
 },
 {
"ward": "京都市伏見区",
"name": "磯部医院",
"address": "京都市伏見区瀬戸物町745-1",
"type": "抗原定性検査",
"smartphone": "不要",
"days": "毎日",
"hours": "24時間対応",
"note": "・受検希望者は事前にお問い合わせください。 TEL:090-2104-1207"
 },
 {
"ward": "京都市伏見区",
"name": "医療法人松寿会　共和病院",
"address": "京都市伏見区醍醐川久保町30",
"type": "PCR検査等",
"smartphone": "",
"days": "月～木",
"hours": "9:30～12:30",
"note": ""
 },
 {
"ward": "京都市伏見区",
"name": "薬局ダックス伏見桃山東店",
"address": "京都市伏見区桃山町山ノ下19番地5",
"type": "PCR検査等 抗原定性検査",
"smartphone": "要",
"days": "月～金",
"hours": "10:00～18:00 (PCR検査は10時～12時)（13:30～14:30は休み）",
"note": "・土、日、祝は休み ・店頭及び電話予約受付  (075-604-4848)"
 },
 {
"ward": "京都市伏見区",
"name": "薬局ダックス伏見肥後町店",
"address": "京都市伏見区肥後町369番地",
"type": "PCR検査等 抗原定性検査",
"smartphone": "要",
"days": "月～金",
"hours": "10:00～18:00 (PCR検査は10時～12時)",
"note": "・日、祝は休み ・土曜日は抗原検査・PCR検査は実施していません。 ・店頭予約のみ受付　(電話での予約は受付しておりません。）"
 },
 {
"ward": "京都市伏見区",
"name": "薬局ダックス伏見丹波橋店",
"address": "京都市伏見区下板橋町630番地12",
"type": "PCR検査等 抗原定性検査",
"smartphone": "要",
"days": "月～土",
"hours": "10:00～18:00 (PCR検査は10時～12時) 土は10:00～17:00",
"note": "・日、祝は休み ・土曜日のPCR検査は実施していません。 ・店頭予約のみ受付　(電話での予約は受付しておりません。）"
 },
 {
"ward": "京都市伏見区",
"name": "薬局ダックス伏見新堀川店",
"address": "京都市伏見区竹田藁屋町34番地",
"type": "PCR検査等 抗原定性検査",
"smartphone": "要",
"days": "月～金",
"hours": "10:00～18:00 (PCR検査は10時～12時)（14時～15時は休み）",
"note": "・土、日、祝は休み ・店頭予約のみ受付　(電話での予約は受付しておりません。）"
 },
 {
"ward": "京都市山科区",
"name": "クラフト株式会社 さくら薬局 京都山科駅前店",
"address": "京都市山科区竹鼻竹ノ街道町92　C-101",
"type": "抗原定性検査",
"smartphone": "不要",
"days": "月～金",
"hours": "12:00～14:00",
"note": "検査キット入荷待ちのため現在受付できません。  祝日は休み"
 },
 {
"ward": "京都市山科区",
"name": "医療法人　社団　恵仁会 なぎ辻病院",
"address": "京都市山科区椥辻東潰5-1",
"type": "PCR検査等",
"smartphone": "不要",
"days": "月～金",
"hours": "9:00～11:00 15:00～16:00",
"note": "・土、日、祝日は検査は実施していません。 ・連絡先は病院のホームページをご確認下さい。"
 },
 {
"ward": "京都市山科区",
"name": "日本調剤(株)　山科薬局",
"address": "京都市山科区竹鼻竹ノ街道町23 レーベン早川Ⅰ1階",
"type": "PCR検査等 抗原定性検査",
"smartphone": "不要",
"days": "月～金",
"hours": "14:00～17:00",
"note": "・土、日、祝日は検査は実施していません。"
 },
 {
"ward": "京都市山科区",
"name": "あおぞら薬局",
"address": "京都市山科区御陵上御廟野町7-7",
"type": "抗原定性検査",
"smartphone": "不要",
"days": "火・木・金",
"hours": "火・金は16:15～18:30 木は9:15～12:15",
"note": "・月、水、土、日、祝日は検査は実施していません。 ・検査キット入荷待ちのため現在受付できません。"
 },
 {
"ward": "京都市山科区",
"name": "スギ薬局　御陵店",
"address": "京都市山科区御陵鴨戸町1番地1",
"type": "抗原定性検査",
"smartphone": "不要",
"days": "月～金",
"hours": "11:00～14:00 15:00～18:00",
"note": "・土、日、祝日は検査は実施していません。 ・事前にお問い合わせください。"
 },
 {
"ward": "京都市山科区",
"name": "にしたんクリニック セルフMK山科ボウル前営業所",
"address": "京都市山科区西野楳本町108-3",
"type": "PCR検査",
"smartphone": "要",
"days": "毎日",
"hours": "10:00～20:00",
"note": ""
 },
 {
"ward": "京都市山科区",
"name": "薬局ダックスイオンタウン山科椥辻店",
"address": "京都市山科区椥辻草海道町15番地１",
"type": "PCR検査等 抗原定性検査",
"smartphone": "要",
"days": "月～土",
"hours": "10:00～18:00 (PCR検査は10時～12時)土は10:00～16:00 （13:30～14:30は休み）",
"note": "・日、祝は休み ・土曜日のPCR検査は実施していません。 ・店頭予約のみ受付　(電話での予約は受付しておりません。）"
 },
 {
"ward": "京都市山科区",
"name": "薬局ダックス山科大塚店",
"address": "京都市山科区大塚野溝町86番地21",
"type": "PCR検査等 抗原定性検査",
"smartphone": "要",
"days": "月～金",
"hours": "10:00～18:00 (PCR検査は10時～12時)（14時～15時は休み）",
"note": "・土、日、祝は休み ・店頭予約のみ受付　(電話での予約は受付しておりません。）"
 },
 {
"ward": "京都市西京区",
"name": "(有)クサノ薬局",
"address": "京都市西京区桂艮町13-89",
"type": "抗原定性検査",
"smartphone": "不要",
"days": "土、日",
"hours": "土は13:00～18:00 日は10:00～16:00",
"note": "検査キット入荷待ちのため現在受付できません。  前日までに下記TELへご連絡をお願いします。 TEL:075-382-2385"
 },
 {
"ward": "京都市西京区",
"name": "日本調剤(株)　桂薬局",
"address": "京都市西京区桂南巽町146 グラシューズ桂1階",
"type": "PCR検査等 抗原定性検査",
"smartphone": "不要",
"days": "月～水、金",
"hours": "14:00～17:00",
"note": "・木、土、日、祝日は検査は実施していません。"
 },
 {
"ward": "京都市西京区",
"name": "薬局ダックス西京洛西中央店",
"address": "京都市西京区大枝東長町1番地296",
"type": "PCR検査等 抗原定性検査",
"smartphone": "要",
"days": "月～土",
"hours": "10:00～18:00 (PCR検査は10時～12時)土は10:00～14:00",
"note": "・日、祝は休み ・土曜日のPCR検査は実施していません。 ・店頭予約のみ受付　(電話での予約は受付しておりません。）"
 },
 {
"ward": "京都市西京区",
"name": "薬局ダックス西京樫原店",
"address": "京都市西京区樫原井戸13番地1",
"type": "PCR検査等 抗原定性検査",
"smartphone": "要",
"days": "月～土",
"hours": "10:00～18:00　(PCR検査は10時～12時)　土は10:00～14:00・15:00～18:00",
"note": "・日、祝は休み ・土曜日のPCR検査は実施していません。 ・店頭予約のみ受付　(電話での予約は受付しておりません。）"
 },
 {
"ward": "京都市西京区",
"name": "薬局ダックス西京桂駅西口店",
"address": "京都市西京区川島有栖川町12番地1",
"type": "PCR検査等 抗原定性検査",
"smartphone": "要",
"days": "月～土",
"hours": "10:00～18:00 (PCR検査は10時～12時)土は10:00～13:00",
"note": "・日、祝は休み ・土曜日のPCR検査は実施していません。 ・店頭予約のみ受付　(電話での予約は受付しておりません。）"
 },
 {
"ward": "京都市外",
"name": "ウエルシア薬局福知山昭和新町店",
"address": "福知山市昭和新町73番地",
"type": "PCR検査 抗原定性検査",
"smartphone": "要 （抗原定性検査は不要）",
"days": "月～金",
"hours": "10:00～18:00 ",
"note": "・土、日、祝日は休み ・PCR検査は午前のみ、15時以降は抗原定性検査のみ ・受付は９時から開始 ・ウエルシア薬局ホームページhttps://www.welcia-yakkyoku.co.jp/より 検査の予約が可能。店頭での受付も可能。"
 },
 {
"ward": "京都市外",
"name": "医療法人　翠生会　松本病院",
"address": "福知山市土師宮町2丁目173番地",
"type": "PCR検査等",
"smartphone": "不要",
"days": "月～土",
"hours": "8:00～17:00 土は8:30～12:00",
"note": "日、祝日は電話にてお問い合わせください。"
 },
 {
"ward": "京都市外",
"name": "内記ゆう薬局",
"address": "福知山市内記63番地53",
"type": "抗原定性検査",
"smartphone": "不要",
"days": "月・火・水・金",
"hours": "13:00～15:00 ",
"note": "・木、土、日、祝日は検査は実施していません。 ・受検希望者は事前にご連絡ください。 TEL:0773-23-8018"
 },
 {
"ward": "京都市外",
"name": "佐々木薬局　本店",
"address": "舞鶴市溝尻150-35",
"type": "抗原定性検査",
"smartphone": "不要",
"days": "月～土",
"hours": "13:00～18:00",
"note": "祝日は休み "
 },
 {
"ward": "京都市外",
"name": "佐々木薬局　森店",
"address": "舞鶴市倉梯30番地の2",
"type": "抗原定性検査",
"smartphone": "不要",
"days": "月～土",
"hours": "13:00～18:00",
"note": "祝日は休み "
 },
 {
"ward": "京都市外",
"name": "佐々木薬局　西舞鶴店",
"address": "舞鶴市伊佐津200-17",
"type": "抗原定性検査",
"smartphone": "不要",
"days": "月～土",
"hours": "13:00～18:00",
"note": "祝日は休み "
 },
 {
"ward": "京都市外",
"name": "医療法人岸本病院",
"address": "舞鶴市字浜1131番地",
"type": "PCR検査等 抗原定性検査",
"smartphone": "不要",
"days": "月～土",
"hours": "12:30～17:00",
"note": "・日、祝日は検査は実施していません。"
 },
 {
"ward": "京都市外",
"name": "倉梯ゆう薬局",
"address": "舞鶴市倉梯町17番10",
"type": "抗原定性検査",
"smartphone": "不要",
"days": "月・火・水・金",
"hours": "13:00～15:00",
"note": "・木、土、日、祝日は検査は実施していません ・受検希望者は事前にご連絡ください。 TEL:0773-66-5533"
 },
 {
"ward": "京都市外",
"name": "クスリのアオキ東舞鶴駅前薬局",
"address": "京都府舞鶴市森町12番地",
"type": "PCR検査等 抗原定性検査",
"smartphone": "要 （抗原定性検査は不要）",
"days": "毎日",
"hours": "9:00～22:00",
"note": ""
 },
 {
"ward": "京都市外",
"name": "ウエルシア薬局宇治伊勢田店",
"address": "宇治市伊勢田町若林57番地",
"type": "PCR検査 抗原定性検査",
"smartphone": "要 （抗原定性検査は不要）",
"days": "月～土",
"hours": "（月～金）10:00～18:00 （土）10:00～17:00 （いずれも13:00～15:00は休み）",
"note": "・日、祝日は休み ・PCR検査は月～金の午前のみ、月～金の15時以降と土曜（終日）は抗原定性検査のみ ・ウエルシア薬局ホームページhttps://www.welcia-yakkyoku.co.jp/より 検査の予約が可能。店頭での受付も可能。"
 },
 {
"ward": "京都市外",
"name": "薬局ダックス宇治小倉西店",
"address": "宇治市伊勢田町砂田105番地",
"type": "PCR検査等 抗原定性検査",
"smartphone": "要",
"days": "月～金",
"hours": "10:00～18:00 (PCR検査は10時～12時)（14時～15時は休み）",
"note": "・土、日、祝は休み ・店頭予約のみ受付　(電話での予約は受付しておりません。）"
 },
 {
"ward": "京都市外",
"name": "薬局ダックス宇治西大久保店",
"address": "宇治市大久保町旦椋50番地2",
"type": "PCR検査等 抗原定性検査",
"smartphone": "要",
"days": "月～土",
"hours": "10:00～18:00 (PCR検査は10時～12時) 土は10:00～13:00",
"note": "・日、祝は休み ・土曜日のPCR検査は実施していません。 ・店頭予約のみ受付　(電話での予約は受付しておりません。）"
 },
 {
"ward": "京都市外",
"name": "薬局ダックス宇治小倉店",
"address": "宇治市小倉町西浦98番地",
"type": "PCR検査等 抗原定性検査",
"smartphone": "要",
"days": "月～土",
"hours": "10:00～18:00 (PCR検査は10時～12時) 土は10:00～12:00",
"note": "・日、祝は休み ・土曜日のPCR検査は実施していません。 ・店頭予約のみ受付　(電話での予約は受付しておりません。）"
 },
 {
"ward": "京都市外",
"name": "神明ゆう薬局",
"address": "宇治市神明宮東14-1　神明ビル1階",
"type": "抗原定性検査",
"smartphone": "不要",
"days": "月・水・金",
"hours": "月は14:00～16:00 水は9:00～10:30 金は13:30～15:30",
"note": "・火、木、土、日、祝日は検査は実施していません。 ・受検希望者は事前にご連絡ください。 TEL:0774-39-8253"
 },
 {
"ward": "京都市外",
"name": "にしたんクリニック MKタクシー大久保のりば",
"address": "京都府宇治市広野町西裏82-5",
"type": "PCR検査等",
"smartphone": "要",
"days": "毎日",
"hours": "9:00～20:00（最終受付）",
"note": ""
 },
 {
"ward": "京都市外",
"name": "一般財団法人日本老人福祉財団 京都ゆうゆうの里診療所",
"address": "京都府宇治市白川鍋倉山14-1",
"type": "抗原定性検査",
"smartphone": "不要",
"days": "月・火・木～土",
"hours": "15:30～16:30",
"note": "・水、日、祝日は検査は実施していません。"
 },
 {
"ward": "京都市外",
"name": "クラフト株式会社 さくら薬局 亀岡南つつじヶ丘店",
"address": "亀岡市南つつじヶ丘大葉台2-44-11",
"type": "抗原定性検査",
"smartphone": "不要",
"days": "月、火、木、金",
"hours": "16:00～17:00",
"note": "検査キット入荷待ちのため現在受付できません。  祝日は休み"
 },
 {
"ward": "京都市外",
"name": "薬局ダックス亀岡篠店",
"address": "亀岡市篠町浄法寺中村40番地2",
"type": "PCR検査等 抗原定性検査",
"smartphone": "要",
"days": "月～土",
"hours": "10:00～18:00 (PCR検査は10時～12時)",
"note": "・日、祝は休み ・土曜日のPCR検査は実施していません。 ・店頭予約のみ受付　(電話での予約は受付しておりません。）"
 },
 {
"ward": "京都市外",
"name": "薬局ダックス城陽久津川店",
"address": "城陽市平川横道87番地1",
"type": "PCR検査等 抗原定性検査",
"smartphone": "要",
"days": "月～土",
"hours": "10:00～18:00 (PCR検査は10時～12時) 土は10:00～16:00",
"note": "・日、祝は休み ・土曜日のPCR検査は実施していません。 ・店頭予約のみ受付　(電話での予約は受付しておりません。）"
 },
 {
"ward": "京都市外",
"name": "薬局ダックス城陽寺田店",
"address": "城陽市寺田垣内後41番地17",
"type": "PCR検査等 抗原定性検査",
"smartphone": "要",
"days": "月～金",
"hours": "10:00～18:00 (PCR検査は10時～12時)（14時～15時は休み）",
"note": "・土、日、祝は休み ・店頭予約のみ受付　(電話での予約は受付しておりません。）"
 },
 {
"ward": "京都市外",
"name": "薬局ダックス長岡京今里店",
"address": "長岡京市今里5丁目147番地",
"type": "PCR検査等 抗原定性検査",
"smartphone": "要",
"days": "月～土",
"hours": "10:00～18:00  (PCR検査は10時～12時) （14時～15時は休み） 土は10:00～13:00",
"note": "・日、祝は休み ・土曜日のPCR検査は実施していません。 ・店頭予約のみ受付　(電話での予約は受付しておりません。）"
 },
 {
"ward": "京都市外",
"name": "薬局ダックス長岡京花山店",
"address": "長岡京市花山3丁目48番地1",
"type": "PCR検査等 抗原定性検査",
"smartphone": "要",
"days": "月～金",
"hours": "10:00～18:00 (PCR検査は10時～12時)（13時～14時は休み）",
"note": "・土、日、祝は休み ・店頭予約のみ受付　(電話での予約は受付しておりません。）"
 },
 {
"ward": "京都市外",
"name": "薬局ダックス京田辺駅前店",
"address": "京田辺市田辺中央１丁目5番地1 ",
"type": "PCR検査等 抗原定性検査",
"smartphone": "要",
"days": "月～土",
"hours": "10:00～18:00 (PCR検査は10時～12時) 土は10:00～13:00",
"note": "・日、祝は休み ・土曜日のPCR検査は実施していません。 ・店頭予約のみ受付　(電話での予約は受付しておりません。）"
 },
 {
"ward": "京都市外",
"name": "三山木ゆう薬局",
"address": "京田辺市三山木中央四丁目2番地8　三山木クリニックモール1階",
"type": "抗原定性検査",
"smartphone": "不要",
"days": "火～木",
"hours": "14:00～16:00",
"note": "・月、金、土、日、祝日は検査は実施していません。 ・受検希望者は事前にご連絡ください。 TEL:0774-68-1025"
 },
 {
"ward": "京都市外",
"name": "薬局ダックス京田辺三山木店",
"address": "京田辺市三山木中央4丁目10番地15",
"type": "PCR検査等 抗原定性検査",
"smartphone": "要",
"days": "月～金",
"hours": "10:00～14:00 15:00～18:00",
"note": "・土、日、祝は休み ・店頭予約のみ受付　(電話での予約は受付しておりません。）"
 },
 {
"ward": "京都市外",
"name": "丹後大宮ゆう薬局",
"address": "京丹後市大宮町周枳小字モトレ1805",
"type": "抗原定性検査",
"smartphone": "不要",
"days": "月～土",
"hours": "月水金は9:00～20:00 火は10:00～20:00 木は10:00～18:00 土は9:00～13:00",
"note": "検査キット入荷待ちのため現在受付できません。 ・日、祝日は検査は実施していません。 ・受検希望者は事前にご連絡ください。 TEL:0772-68-3150"
 },
 {
"ward": "京都市外",
"name": "日本調剤(株)　久美浜薬局",
"address": "京丹後市久美浜町栃谷今森2050",
"type": "PCR検査等 抗原定性検査",
"smartphone": "不要",
"days": "月～金",
"hours": "15:30～18:15",
"note": "・土・日・祝は検査は実施していません。 ・事前にお問い合わせください。"
 },
 {
"ward": "京都市外",
"name": "薬局ダックス南丹園部店",
"address": "南丹市園部町内林町2-76",
"type": "PCR検査等 抗原定性検査",
"smartphone": "要",
"days": "月～土",
"hours": "10:00～18:00 (PCR検査は10時～12時)",
"note": "・日、祝は休み ・土曜日のPCR検査は実施していません。 ・店頭予約のみ受付　(電話での予約は受付しておりません。）"
 },
 {
"ward": "京都市外",
"name": "日吉ゆう薬局",
"address": "京都府南丹市日吉町保野田長通16-3",
"type": "抗原定性検査",
"smartphone": "不要",
"days": "月～水",
"hours": "15:30～17:30 (最終受付時間17:00）",
"note": "検査キット入荷待ちのため現在受付できません。 ・木～日、祝日は検査は実施していません。 ・受検希望者は事前にご連絡ください。 TEL:0771-72-5001"
 },
 {
"ward": "京都市外",
"name": "ウエルシア薬局木津川山田川駅前店",
"address": "木津川市相楽城西26-2",
"type": "PCR検査 抗原定性検査",
"smartphone": "要 （抗原定性検査は不要）",
"days": "月～土",
"hours": "（月～金）10:00～18:00 （土）10:00～17:00 （いずれも13:00～15:00は休み）",
"note": "・日、祝日は休み ・PCR検査は月～金の午前のみ、月～金の15時以降と土曜（終日）は抗原定性検査のみ ・ウエルシア薬局ホームページhttps://www.welcia-yakkyoku.co.jp/より 検査の予約が可能。店頭での受付も可能。"
 },
 {
"ward": "京都市外",
"name": "ウエルシア薬局イオン高の原店",
"address": "木津川市相楽台1-3",
"type": "PCR検査 抗原定性検査",
"smartphone": "要 （抗原定性検査は不要）",
"days": "月～土",
"hours": "（月～金)10:00～18:00 （土）10:00～17:00 （いずれも13:00～15:00は休み）",
"note": "・日・祝日は休み ・PCR検査は月～金の午前のみ、月～金の15時以降と土曜（終日）は抗原定性検査のみ ・ウエルシア薬局ホームページhttps://www.welcia-yakkyoku.co.jp/より 検査の予約が可能。店頭での受付も可能。"
 },
 {
"ward": "京都市外",
"name": "ウエルシア薬局木津川州見台店",
"address": "木津川市州見台8-4-12",
"type": "PCR検査 抗原定性検査",
"smartphone": "要 （抗原定性検査は不要）",
"days": "月～土",
"hours": "（月～金）10:00～18:00 （土）10:00～17:00 （いずれも13:00～15:00は休み）",
"note": "・日、祝日は休み ・PCR検査は月～金の午前のみ、月～金の15時以降と土曜（終日）は抗原定性検査のみ ・ウエルシア薬局ホームページhttps://www.welcia-yakkyoku.co.jp/より 検査の予約が可能。店頭での受付も可能。"
 },
 {
"ward": "京都市外",
"name": "うさぎや薬局加茂店",
"address": "木津川市加茂町里南古田134番地",
"type": "抗原定性検査",
"smartphone": "不要",
"days": "月～金",
"hours": "13:00～16:00",
"note": "土、日、祝は休み"
 },
 {
"ward": "京都市外",
"name": "なごみ薬局西木津店",
"address": "京都府木津川市相楽川ノ尻80-6",
"type": "抗原定性検査",
"smartphone": "不要",
"days": "月・火・木～土",
"hours": "12時半～14時半",
"note": "・水、日、祝日は検査は実施していません。"
 },
 {
"ward": "京都市外",
"name": "クスリのアオキ大山崎薬局",
"address": "京都府乙訓郡大山崎町字大山崎小字斗加坪8番地",
"type": "PCR検査等 抗原定性検査",
"smartphone": "要 （抗原定性検査は不要）",
"days": "毎日",
"hours": "9:00～22:00",
"note": ""
 },
 {
"ward": "京都市外",
"name": "クラフト株式会社 さくら薬局 京都久御山店",
"address": "久世郡久御山町坊ノ池坊村中56-2",
"type": "抗原定性検査",
"smartphone": "不要",
"days": "月～金",
"hours": "17:00～18:00",
"note": "検査キット入荷待ちのため現在受付できません。  祝日は休み"
 },
 {
"ward": "京都市外",
"name": "医療法人八仁会　久御山南病院",
"address": "京都府久世郡久御山町坊之池坊村中28",
"type": "PCR検査等",
"smartphone": "不要",
"days": "月・火・水・木",
"hours": "9:00～12:00、 14:00～16:00 水は午前のみ",
"note": ""
 },
 {
"ward": "京都市外",
"name": "クスリのアオキ佐山薬局",
"address": "京都府久世郡久御山町佐山西ノ口117番地",
"type": "PCR検査等 抗原定性検査",
"smartphone": "要 （抗原定性検査は不要）",
"days": "毎日",
"hours": "9:00～22:00",
"note": ""
 },
 {
"ward": "京都市外",
"name": "ウエルシア薬局相楽精華台店",
"address": "相楽郡精華町精華台3-12-3",
"type": "PCR検査 抗原定性検査",
"smartphone": "要 （抗原定性検査は不要）",
"days": "月～土",
"hours": "（月～土）10:00～17:00 （いずれも12:00～14:00は休み）",
"note": "・日、祝日は休み ・PCR検査は月～金の午前のみ、月～金の14時以降と土曜（終日）は抗原定性検査のみ ・ウエルシア薬局ホームページhttps://www.welcia-yakkyoku.co.jp/より 検査の予約が可能。店頭での受付も可能。"
 },
 {
"ward": "京都市外",
"name": "うさぎや薬局",
"address": "相楽郡精華町桜が丘三丁目24番地5",
"type": "抗原定性検査",
"smartphone": "不要",
"days": "月～金",
"hours": "月､火､水､金は13:00～16:00 木は9:00～16:00",
"note": "土、日、祝は休み"
 },
 {
"ward": "京都市外",
"name": "ウエルシア薬局与謝野男山店",
"address": "与謝郡与謝野町字男山321",
"type": "PCR検査 抗原定性検査",
"smartphone": "要 （抗原定性検査は不要）",
"days": "月～金",
"hours": "10:00～17:00 （13:00～15:00は休み）",
"note": "・土、日、祝日は休み ・PCR検査は午前のみ、15時以降は抗原定性検査のみ ・ウエルシア薬局ホームページhttps://www.welcia-yakkyoku.co.jp/より 検査の予約が可能。店頭での受付も可能。"
 }
]